[{"lat":53.79869910513901,"tiploc":"BLCKS","name":"Blackpool South","crs":"BPS","toc":"NT","lon":-3.0489377781044458},{"lat":53.48308168507671,"tiploc":"SLFDORD","name":"Salford Central","crs":"SFD","toc":"NT","lon":-2.254840687983262},{"lat":51.193898925872205,"tiploc":"LEIGHK","name":"Leigh (Kent)","crs":"LIH","toc":"SN","lon":0.21049492538885142},{"lat":51.530881477704284,"tiploc":"KNGX","name":"London Kings Cross","crs":"KGX","toc":"RT","lon":-0.12292598600691025},{"lat":51.24064790454977,"tiploc":"LRDGFD","name":"London Road (Guildford)","crs":"LRD","toc":"SW","lon":-0.5650689527735233},{"lat":53.3918144893738,"tiploc":"WRGT","name":"Warrington Central","crs":"WAC","toc":"TP","lon":-2.5931682922138877},{"lat":51.736370675488565,"tiploc":"CHLMSFD","name":"Chelmsford","crs":"CHM","toc":"LE","lon":0.46857210000913924},{"lat":51.522522027884825,"tiploc":"MARYLBN","name":"London Marylebone","crs":"MYB","toc":"CH","lon":-0.16291089985291704},{"lat":51.511807863865975,"tiploc":"BLFR","name":"London Blackfriars","crs":"BFR","toc":"TL","lon":-0.10333206712443484},{"lat":53.007978436382714,"tiploc":"STOKEOT","name":"Stoke-on-Trent","crs":"SOT","toc":"VT","lon":-2.1809873296066558},{"lat":55.859754790338684,"tiploc":"GLGC","name":"Glasgow Central","crs":"GLC","toc":"RT","lon":-4.257643235656933},{"lat":53.451881717823916,"tiploc":"HYDEC","name":"Hyde Central","crs":"HYC","toc":"NT","lon":-2.085250132298221},{"lat":53.47403006615655,"tiploc":"MNCROXR","name":"Manchester Oxford Road","crs":"MCO","toc":"NT","lon":-2.241995406797514},{"lat":53.48658566966817,"tiploc":"SLFDCT","name":"Salford Crescent","crs":"SLD","toc":"NT","lon":-2.2757492966098565},{"lat":52.916546205330725,"tiploc":"DRBY","name":"Derby","crs":"DBY","toc":"EM","lon":-1.4633546510970457},{"lat":53.75685774699433,"tiploc":"PRSTFGT","name":"Preston","crs":"PRE","toc":"VT","lon":-2.7081278479201925},{"lat":53.75685774699433,"tiploc":"PRSTN4B","name":"Preston","crs":"PRE","toc":"VT","lon":-2.7081278479201925},{"lat":53.386006662850924,"tiploc":"WRGTNBQ","name":"Warrington Bank Quay","crs":"WBQ","toc":"VT","lon":-2.6023641535867097},{"lat":51.50329674936403,"tiploc":"WATRLMN","name":"London Waterloo","crs":"WAT","toc":"RT","lon":-0.11310894207247583},{"lat":53.79562496030203,"tiploc":"LEEDS","name":"Leeds","crs":"LDS","toc":"RT","lon":-1.5480255300534769},{"lat":53.75685774699433,"tiploc":"PRST","name":"Preston","crs":"PRE","toc":"VT","lon":-2.7081278479201925},{"lat":53.787950590160115,"tiploc":"BLCKPB","name":"Blackpool Pleasure Beach","crs":"BPB","toc":"NT","lon":-3.0538759205250923},{"lat":52.25376132668849,"tiploc":"BSTEDMS","name":"Bury St Edmunds","crs":"BSE","toc":"LE","lon":0.7133066937728735},{"lat":53.33869308497395,"tiploc":"RUNCORN","name":"Runcorn","crs":"RUN","toc":"VT","lon":-2.7392511191085096},{"lat":51.50329674936403,"tiploc":"WATRLOO","name":"London Waterloo","crs":"WAT","toc":"RT","lon":-0.11310894207247583},{"lat":52.63142346389848,"tiploc":"LESTER","name":"Leicester","crs":"LEI","toc":"EM","lon":-1.1252754879979778},{"lat":51.50329674936403,"tiploc":"WATRLOW","name":"London Waterloo","crs":"WAT","toc":"RT","lon":-0.11310894207247583},{"lat":53.57414163728072,"tiploc":"BOLTON","name":"Bolton","crs":"BON","toc":"NT","lon":-2.42582462778998},{"lat":51.51138045355871,"tiploc":"CANONST","name":"London Cannon Street","crs":"CST","toc":"RT","lon":-0.09029297465945531},{"lat":55.92754975919547,"tiploc":"EDINPRK","name":"Edinburgh Park","crs":"EDP","toc":"SR","lon":-3.307664119642849},{"lat":53.40968239584766,"tiploc":"HUYTON","name":"Huyton","crs":"HUY","toc":"NT","lon":-2.8429888014330884},{"lat":53.46219154904826,"tiploc":"MNCRUFG","name":"Manchester United FC","crs":"MUF","toc":"NT","lon":-2.2906528307684377},{"lat":53.47735977842919,"tiploc":"MNCRPIC","name":"Manchester Piccadilly","crs":"MAN","toc":"RT","lon":-2.230909897379996},{"lat":50.836661033064274,"tiploc":"BRGHBUS","name":"London Road (Brighton)","crs":"LRB","toc":"SN","lon":-0.1365023384309572},{"lat":51.532511717678545,"tiploc":"STPX","name":"London St Pancras (Intl)","crs":"STP","toc":"RT","lon":-0.12646346391460586},{"lat":51.51599365024708,"tiploc":"PADTON","name":"London Paddington","crs":"PAD","toc":"RT","lon":-0.17617397175493335},{"lat":53.821913173762844,"tiploc":"BLCKPLN","name":"Blackpool North","crs":"BPN","toc":"NT","lon":-3.049274619478222},{"lat":53.301788917919545,"tiploc":"KNUTSFD","name":"Knutsford","crs":"KNF","toc":"NT","lon":-2.3717905990564785},{"lat":50.836661033064274,"tiploc":"BRGHLRD","name":"London Road (Brighton)","crs":"LRB","toc":"SN","lon":-0.1365023384309572},{"lat":51.51798916063051,"tiploc":"LIVST","name":"London Liverpool Street","crs":"LST","toc":"RT","lon":-0.08142601994463783},{"lat":53.19669347798854,"tiploc":"CHST","name":"Chester","crs":"CTR","toc":"AW","lon":-2.8795935103797943},{"lat":53.32756660632855,"tiploc":"RUNCRNE","name":"Runcorn East","crs":"RUE","toc":"AW","lon":-2.6656974126939357},{"lat":53.387714943823724,"tiploc":"ALTRNHM","name":"Altrincham","crs":"ALT","toc":"NT","lon":-2.3468887785179584},{"lat":51.45878439187583,"tiploc":"RDNGSTN","name":"Reading","crs":"RDG","toc":"RT","lon":-0.9718632259471497},{"lat":53.61030523721506,"tiploc":"RCHDALE","name":"Rochdale","crs":"RCD","toc":"NT","lon":-2.1535241469045205},{"lat":51.49525563890046,"tiploc":"VICTRIA","name":"London Victoria","crs":"VIC","toc":"RT","lon":-0.14455880269236793},{"lat":51.49525563890046,"tiploc":"VICTRIC","name":"London Victoria","crs":"VIC","toc":"RT","lon":-0.14455880269236793},{"lat":51.49525563890046,"tiploc":"VICTRIE","name":"London Victoria","crs":"VIC","toc":"RT","lon":-0.14455880269236793},{"lat":53.365039908385704,"tiploc":"MNCRIAP","name":"Manchester Airport","crs":"MIA","toc":"TP","lon":-2.272979517172078},{"lat":51.508025531925895,"tiploc":"CHRX","name":"London Charing Cross","crs":"CHX","toc":"RT","lon":-0.12480218319497094},{"lat":53.404598098702515,"tiploc":"LVRPLCH","name":"Liverpool Central","crs":"LVC","toc":"ME","lon":-2.9791680779332728},{"lat":53.404598098702515,"tiploc":"LVRPLCL","name":"Liverpool Central","crs":"LVC","toc":"ME","lon":-2.9791680779332728},{"lat":53.357742438721885,"tiploc":"LVRPSPY","name":"Liverpool South Parkway","crs":"LPY","toc":"ME","lon":-2.8891277373182462},{"lat":52.479077553379206,"tiploc":"BHAMMRS","name":"Birmingham Moor Street","crs":"BMO","toc":"CH","lon":-1.8924725174055936},{"lat":53.40476217683638,"tiploc":"JAMESST","name":"James Street","crs":"LVJ","toc":"ME","lon":-2.9919576086030903},{"lat":52.947072719374724,"tiploc":"NTNG","name":"Nottingham","crs":"NOT","toc":"EM","lon":-1.1463817644997505},{"lat":53.37821824336251,"tiploc":"SHEFFLD","name":"Sheffield","crs":"SHF","toc":"EM","lon":-1.4621108594074015},{"lat":53.95796426172391,"tiploc":"YORK","name":"York","crs":"YRK","toc":"GR","lon":-1.0931821299776603},{"lat":53.74414867919683,"tiploc":"HULL","name":"Hull","crs":"HUL","toc":"TP","lon":-0.3456800205224876},{"lat":55.86218695863235,"tiploc":"GLGQLL","name":"Glasgow Queen Street","crs":"GLQ","toc":"SR","lon":-4.251455813529946},{"lat":51.45878439187583,"tiploc":"RDNGBUS","name":"Reading","crs":"RDG","toc":"RT","lon":-0.9718632259471497},{"lat":55.859754790338684,"tiploc":"GLGCLL","name":"Glasgow Central","crs":"GLC","toc":"RT","lon":-4.257643235656933},{"lat":51.505017171569044,"tiploc":"LNDNBDC","name":"London Bridge","crs":"LBG","toc":"RT","lon":-0.08609208068415171},{"lat":51.505017171569044,"tiploc":"LNDNBDE","name":"London Bridge","crs":"LBG","toc":"RT","lon":-0.08609208068415171},{"lat":51.505017171569044,"tiploc":"LNDNBDG","name":"London Bridge","crs":"LBG","toc":"RT","lon":-0.08609208068415171},{"lat":51.532511717678545,"tiploc":"STPANCI","name":"London St Pancras (Intl)","crs":"STP","toc":"RT","lon":-0.12646346391460586},{"lat":50.82900288362236,"tiploc":"BRGHTN","name":"Brighton","crs":"BTN","toc":"SN","lon":-0.141280356200382},{"lat":51.45878439187583,"tiploc":"RDNG4AB","name":"Reading","crs":"RDG","toc":"RT","lon":-0.9718632259471497},{"lat":53.46479800310708,"tiploc":"HYDEN","name":"Hyde North","crs":"HYT","toc":"NT","lon":-2.085456838239302},{"lat":51.467106795236575,"tiploc":"CARDFBR","name":"Cardiff Bay","crs":"CDB","toc":"AW","lon":-3.1664028552755012},{"lat":51.45549922739157,"tiploc":"REDGWST","name":"Reading West","crs":"RDW","toc":"GW","lon":-0.9901293231371543},{"lat":53.648500697334256,"tiploc":"HDRSFLD","name":"Huddersfield","crs":"HUD","toc":"TP","lon":-1.7846902087574927},{"lat":52.45124043088226,"tiploc":"UNVRSYB","name":"University","crs":"UNI","toc":"LM","lon":-1.9366836877020914},{"lat":53.407306596199135,"tiploc":"LVRPLSH","name":"Liverpool Lime Street","crs":"LIV","toc":"RT","lon":-2.977725996933913},{"lat":53.407306596199135,"tiploc":"LVRPLSL","name":"Liverpool Lime Street","crs":"LIV","toc":"RT","lon":-2.977725996933913},{"lat":51.528134384970876,"tiploc":"EUSTON","name":"London Euston","crs":"EUS","toc":"RT","lon":-0.1339236297047451},{"lat":55.95239181500993,"tiploc":"EDINBUR","name":"Edinburgh","crs":"EDB","toc":"RT","lon":-3.18822766090509},{"lat":55.86218695863235,"tiploc":"CWLRSNJ","name":"Glasgow Queen Street","crs":"GLQ","toc":"SR","lon":-4.251455813529946},{"lat":53.40553682294367,"tiploc":"STKP","name":"Stockport","crs":"SPT","toc":"VT","lon":-2.1630130861151984},{"lat":53.32684589575232,"tiploc":"WLMSL","name":"Wilmslow","crs":"WML","toc":"NT","lon":-2.226326991473437},{"lat":51.193898925872205,"tiploc":"LEIGBUS","name":"Leigh (Kent)","crs":"LIH","toc":"SN","lon":0.21049492538885142},{"lat":51.50329674936403,"tiploc":"WATR","name":"London Waterloo","crs":"WAT","toc":"RT","lon":-0.11310894207247583},{"lat":54.968400319562555,"tiploc":"NWCSTLE","name":"Newcastle","crs":"NCL","toc":"GR","lon":-1.6172798288539492},{"lat":51.50407422546189,"tiploc":"WLOE","name":"London Waterloo East","crs":"WAE","toc":"SE","lon":-0.10889815906806012},{"lat":51.47602362454856,"tiploc":"CRDFCEN","name":"Cardiff Central","crs":"CDF","toc":"AW","lon":-3.1793017017130505},{"lat":51.51164396451521,"tiploc":"FENCHRS","name":"London Fenchurch Street","crs":"FST","toc":"RT","lon":-0.07889676336960706},{"lat":51.48195976865919,"tiploc":"CARDFQS","name":"Cardiff Queen Street","crs":"CDQ","toc":"AW","lon":-3.170180516167051},{"lat":51.532511717678545,"tiploc":"STPXBOX","name":"London St Pancras (Intl)","crs":"STP","toc":"RT","lon":-0.12646346391460586},{"lat":53.48746658496171,"tiploc":"MNCRVIC","name":"Manchester Victoria","crs":"MCV","toc":"NT","lon":-2.2425994349005447},{"lat":52.45080530743254,"tiploc":"BHAMINT","name":"Birmingham International","crs":"BHI","toc":"VT","lon":-1.7258566819456247},{"lat":53.74651446802013,"tiploc":"BLKB","name":"Blackburn","crs":"BBN","toc":"NT","lon":-2.479122039607935},{"lat":51.156488861636355,"tiploc":"GTWK","name":"Gatwick Airport","crs":"GTW","toc":"SN","lon":-0.16104152797763818},{"lat":53.357742438721885,"tiploc":"ALERTN","name":"Liverpool South Parkway","crs":"LPY","toc":"ME","lon":-2.8891277373182462},{"lat":52.48335359717666,"tiploc":"BHAMSNH","name":"Birmingham Snow Hill","crs":"BSW","toc":"LM","lon":-1.8990884684896296},{"lat":55.86218695863235,"tiploc":"GLGQHL","name":"Glasgow Queen Street","crs":"GLQ","toc":"SR","lon":-4.251455813529946},{"lat":52.477816726366996,"tiploc":"BHAMNWS","name":"Birmingham New Street","crs":"BHM","toc":"RT","lon":-1.9002053557970393},{"lat":53.25934029200069,"tiploc":"MACLSFD","name":"Macclesfield","crs":"MAC","toc":"VT","lon":-2.1219817687681863},{"lat":51.5411511091747,"tiploc":"LONFLDS","name":"London Fields","crs":"LOF","toc":"LO","lon":-0.05775336888428888}]